{
"status":"1",
"data":
{
"province":"江苏省",
"cross_list":[
{"distance":"214.093",
"direction":"NorthEast",
"name":"龙蟠里--广州路",
"weight":"130",
"level":"45000, 44000",
"longitude":"118.7654783",
"crossid":"025I50F0480392060--025I50F048039572",
"width":"8, 20",
"latitude":"32.04755806"},
{"distance":"253.144",
"direction":"NorthEast",
"name":"广州路--虎踞关",
"weight":"140",
"level":"44000, 44000",
"longitude":"118.7644217",
"crossid":"025I50F048039572--025I50F048039574",
"width":"20, 12","latitude":"32.04803806"},
{"distance":"273.243",
"direction":"West",
"name":"拉萨路--广州路",
"weight":"140",
"level":"44000, 44000",
"longitude":"118.7696642",
"crossid":"025I50F0480392277--025I50F048039572",
"width":"8, 20",
"latitude":"32.04898306"
}
],
"code":"1",
"tel":"025",
"cityadcode":"320100",
"areacode":"025",
"timestamp":"1470059270.53",
"pos":"在江苏省人民医院附近, 在龙蟠里旁边, 靠近广州路--虎踞关路口",
"road_list":[
{"distance":"173",
"direction":"NorthWest",
"name":"广州路",
"level":"4",
"longitude":"118.768",
"width":"20",
"roadid":"025I50F048039572",
"latitude":"32.0478"},
{"distance":"204",
"direction":"NorthEast",
"name":"龙蟠里",
"level":"5",
"longitude":"118.766",
"width":"8",
"roadid":"025I50F0480392060",
"latitude":"32.0476"},
{"distance":"244",
"direction":"East",
"name":"虎踞关",
"level":"4",
"longitude":"118.764",
"width":"12",
"roadid":"025I50F048039574",
"latitude":"32.0485"}
],
"result":"true",
"message":"Successful.",
"desc":"江苏省,南京市,鼓楼区",
"city":"南京市",
"districtadcode":"320106",
"district":"鼓楼区",
"country":"中国",
"provinceadcode":"320000",
"version":"2.0-3.0.6208.2255",
"adcode":"320106",
"poi_list":[
{"distance":"0",
"direction":"Center",
"tel":"025-83718836;025-83714511",
"name":"江苏省人民医院",
"weight":"0.0",
"typecode":"090101",
"longitude":"118.766771",
"address":"广州路300号",
"latitude":"32.049141",
"type":"医疗保健服务;综合医院;三级甲等医院",
"poiid":"B00190514F"},
{"distance":"42",
"direction":"East",
"tel":"025-83718836;025-83714511;025-83733043",
"name":"南京医科大学第一附属医院",
"weight":"0.0",
"typecode":"090101",
"longitude":"118.76722",
"address":"广州路300号",
"latitude":"32.049144",
"type":"医疗保健服务;综合医院;三级甲等医院",
"poiid":"B0019048D0"},
{"distance":"42",
"direction":"East",
"tel":"",
"name":"南京医科大学第一附属医院肝脏外科研究所",
"weight":"0.0",
"typecode":"141300",
"longitude":"118.767220",
"address":"广州路300号江苏省人民医院0号楼肝脏",
"latitude":"32.049146",
"type":"科教文化服务;科研机构;科研机构",
"poiid":"B001909TGJ"},
{"distance":"42",
"direction":"East",
"tel":"",
"name":"中国活体肝脏移植研究所",
"weight":"0.0",
"typecode":"141300",
"longitude":"118.767220",
"address":"广州路300号江苏省人民医院核医学楼8楼",
"latitude":"32.049146",
"type":"科教文化服务;科研机构;科研机构",
"poiid":"B001909GHX"},
{"distance":"112",
"direction":"North",
"tel":"025-83714511",
"name":"江苏省人民医院司法鉴定所",
"weight":"0.0",
"typecode":"130505",
"longitude":"118.766438",
"address":"广州路300号省人民医院内",
"latitude":"32.050116",
"type":"政府机构及社会团体;公检法机构;公证鉴定机构",
"poiid":"B001917816"}
]
}
}